[
    {
        "device_id": "AIIMS_Delhi",
        "location_name": "AIIMS Delhi",
        "lat": 28.5672,
        "lon": 77.21,
        "pm2_5": 73.26,
        "pm10": 128.65,
        "no2": 66.72,
        "so2": 10.83,
        "co": 0.5,
        "battery": 66.2,
        "status": "ACTIVE",
        "timestamp": "2025-11-29T06:34:16.724375"
    },
    {
        "device_id": "Anand_Vihar",
        "location_name": "Anand Vihar",
        "lat": 28.646,
        "lon": 77.315,
        "pm2_5": 167.16,
        "pm10": 253.23,
        "no2": 76.12,
        "so2": 13.11,
        "co": 1.89,
        "battery": 65.8,
        "status": "ACTIVE",
        "timestamp": "2025-11-29T06:34:16.725815"
    },
    {
        "device_id": "Chandni_Chowk",
        "location_name": "Chandni Chowk",
        "lat": 28.6562,
        "lon": 77.23,
        "pm2_5": 83.03,
        "pm10": 144.04,
        "no2": 43.96,
        "so2": 32.95,
        "co": 0.89,
        "battery": 69.7,
        "status": "IDLE",
        "timestamp": "2025-11-29T06:34:16.726910"
    },
    {
        "device_id": "Connaught_Place",
        "location_name": "Connaught Place",
        "lat": 28.6304,
        "lon": 77.2177,
        "pm2_5": 141.97,
        "pm10": 253.82,
        "no2": 74.87,
        "so2": 17.05,
        "co": 1.21,
        "battery": 67.2,
        "status": "ACTIVE",
        "timestamp": "2025-11-29T06:34:16.727921"
    },
    {
        "device_id": "Dwarka",
        "location_name": "Dwarka",
        "lat": 28.5921,
        "lon": 77.046,
        "pm2_5": 177.81,
        "pm10": 263.47,
        "no2": 37.83,
        "so2": 17.8,
        "co": 1.63,
        "battery": 71.0,
        "status": "ACTIVE",
        "timestamp": "2025-11-29T06:34:16.728812"
    },
    {
        "device_id": "Gurugram",
        "location_name": "Gurugram",
        "lat": 28.4595,
        "lon": 77.0266,
        "pm2_5": 160.93,
        "pm10": 265.61,
        "no2": 50.09,
        "so2": 21.59,
        "co": 0.54,
        "battery": 64.3,
        "status": "ACTIVE",
        "timestamp": "2025-11-29T06:34:16.729819"
    },
    {
        "device_id": "Noida_Sector_62",
        "location_name": "Noida Sector 62",
        "lat": 28.6289,
        "lon": 77.3649,
        "pm2_5": 76.07,
        "pm10": 122.23,
        "no2": 55.16,
        "so2": 25.59,
        "co": 2.6,
        "battery": 93.9,
        "status": "ACTIVE",
        "timestamp": "2025-11-29T06:34:16.730745"
    },
    {
        "device_id": "Greater_Noida",
        "location_name": "Greater Noida",
        "lat": 28.4744,
        "lon": 77.508,
        "pm2_5": 103.6,
        "pm10": 182.72,
        "no2": 72.66,
        "so2": 16.12,
        "co": 1.48,
        "battery": 96.6,
        "status": "ACTIVE",
        "timestamp": "2025-11-29T06:34:16.731588"
    },
    {
        "device_id": "Faridabad",
        "location_name": "Faridabad",
        "lat": 28.4089,
        "lon": 77.3178,
        "pm2_5": 144.3,
        "pm10": 259.21,
        "no2": 33.25,
        "so2": 27.92,
        "co": 2.61,
        "battery": 93.7,
        "status": "ACTIVE",
        "timestamp": "2025-11-29T06:34:16.732648"
    },
    {
        "device_id": "Ghaziabad",
        "location_name": "Ghaziabad",
        "lat": 28.6692,
        "lon": 77.4538,
        "pm2_5": 83.02,
        "pm10": 125.68,
        "no2": 50.13,
        "so2": 32.22,
        "co": 1.16,
        "battery": 87.8,
        "status": "IDLE",
        "timestamp": "2025-11-29T06:34:16.733647"
    },
    {
        "device_id": "Lodhi_Road",
        "location_name": "Lodhi Road",
        "lat": 28.5918,
        "lon": 77.2197,
        "pm2_5": 117.97,
        "pm10": 206.84,
        "no2": 34.46,
        "so2": 36.19,
        "co": 1.62,
        "battery": 87.8,
        "status": "IDLE",
        "timestamp": "2025-11-29T06:34:16.734602"
    },
    {
        "device_id": "Vasant_Kunj",
        "location_name": "Vasant Kunj",
        "lat": 28.5204,
        "lon": 77.158,
        "pm2_5": 143.9,
        "pm10": 207.85,
        "no2": 38.68,
        "so2": 39.9,
        "co": 1.53,
        "battery": 86.4,
        "status": "IDLE",
        "timestamp": "2025-11-29T06:34:16.735526"
    },
    {
        "device_id": "Aravalli_Biodiversity_Park",
        "location_name": "Aravalli Biodiversity Park",
        "lat": 28.5246,
        "lon": 77.1777,
        "pm2_5": 29.62,
        "pm10": 46.52,
        "no2": 8.67,
        "so2": 3.5,
        "co": 0.21,
        "battery": 86.6,
        "status": "IDLE",
        "timestamp": "2025-11-29T06:34:16.736434"
    },
    {
        "device_id": "Sanjay_Van",
        "location_name": "Sanjay Van",
        "lat": 28.533,
        "lon": 77.2,
        "pm2_5": 15.27,
        "pm10": 38.82,
        "no2": 12.99,
        "so2": 6.9,
        "co": 0.88,
        "battery": 97.8,
        "status": "IDLE",
        "timestamp": "2025-11-29T06:34:16.738008"
    }
]